[
    {"title": "The City",
    "category": "Restaurante",
    "email": "alejandro@bigninjas.com",
    "phone": "011 4331-5000",
    "fullAddress": "Tte. Gral. Juan Domingo Perón 301,C1038AAG CABA",
    "latitude": -34.605329,
    "longitude": -58.371034,
    "openingdays": "Lunes a Domingo",
    "openingHours": "09 a 23 hrs"},

    {"title": "Open 25",
    "category": "Kiosco",
    "email": "alejandro@bigninjas.com",
    "phone": "-",
    "fullAddress": "Tte. Gral. Juan Domingo Perón 300,C1038AAG CABA",
    "latitude": -34.605411,
    "longitude": -58.371039,
    "openingdays": "Lunes a Domingo",
    "openingHours": "09 a 01 hrs"},

    {"title": "San Villanueva",
    "category": "Restaurante",
    "email": "alejandro@bigninjas.com",
    "phone": "011 4343-1572",
    "fullAddress": "25 De Mayo 238,1002,Cdad. Autónoma de Buenos Aires",
    "latitude": -34.604970,
    "longitude": -58.370963,
    "openingdays": "Lunes a Domingo",
    "openingHours": "18 a 01 hrs"},

    {"title": "Alimentari",
    "category": "Panaderia",
    "email": "alejandro@bigninjas.com",
    "phone": "011 4343-5656",
    "fullAddress": "Sarmiento 372,C1041AAH CABA",
    "latitude": -34.604329,
    "longitude": -58.372007,
    "openingdays": "Lunes a Domingo",
    "openingHours": "07 a 18 hrs"},

    {"title": "Sterling Café",
    "category": "Panaderia",
    "email": "alejandro@bigninjas.com",
    "phone": "011 4394-8761",
    "fullAddress": "Sarmiento 402,C1041AAJ CABA",
    "latitude": -34.604420,
    "longitude":-58.372535,
    "openingdays": "Lunes a Viernes",
    "openingHours": "07 a 21 hrs"},

    {"title": "Wok Garden",
    "category": "Restaurante",
    "email": "alejandro@bigninjas.com",
    "phone": "011 4343-5786",
    "fullAddress": "Reconquista 286,C1003ABF CABA",
    "latitude": -34.604643,
    "longitude": -58.372428,
    "openingdays": "Lunes a Domingo",
    "openingHours": "12 a 23 hrs"},

    {"title": "Kiosco Store de Reconquista",
    "category": "Kiosco",
    "email": "alejandro@bigninjas.com",
    "phone": "011 4343-5426",
    "fullAddress": "Reconquista 284,C1003ABF CABA",
    "latitude": -34.604965,
    "longitude": -58.372385,
    "openingdays": "Lunes a Domingo",
    "openingHours": "00 a 24 hrs"},

    {"title": "Carlito's Güey",
    "category": "Bar",
    "email": "alejandro@bigninjas.com",
    "phone": "011 4343-5426",
    "fullAddress": "Maipú 321, Ciudad de Buenos Aires",
    "latitude": -34.604292,
    "longitude": -58.376652,
    "openingdays": "Lunes a Domingo",
    "openingHours": "17 a 05 hrs"},

    {"title": "Pepito",
    "category": "Restaurante",
    "email": "alejandro@bigninjas.com",
    "phone": "011 4343-5426",
    "fullAddress": "San Martín 296, Ciudad de Buenos Aires",
    "latitude": -34.604680,
    "longitude": -58.373970,
    "openingdays": "Lunes a Domingo",
    "openingHours": "18 a 01 hrs"},

    {"title": "Lo de Tito",
    "category": "Bar",
    "email": "alejandro@bigninjas.com",
    "phone": "011 4333-1234",
    "fullAddress": "25 de mayo 277, Ciudad de Buenos Aires",
    "latitude": -34.604486,
    "longitude": -58.370966,
    "openingdays": "Lunes a Domingo",
    "openingHours": "18 a 01 hrs"},

    {"title": "Ernesto's",
    "category": "Restaurante",
    "email": "alejandro@bigninjas.com",
    "phone": "011 4957-0683",
    "fullAddress": "Bartolomé Mitre 575, Ciudad de Buenos Aires",
    "latitude": -34.606782,
    "longitude": -58.374421,
    "openingdays": "Lunes a Domingo",
    "openingHours": "12 a 01 hrs"},

    {"title": "La Cúpula",
    "category": "Panadería",
    "email": "alejandro@bigninjas.com",
    "phone": "011 4333-1234",
    "fullAddress": "Galería Güemes,San Martín 170,C1004AAD CABA",
    "latitude": -34.605990,
    "longitude": -58.373837,
    "openingdays": "Lunes a Domingo",
    "openingHours": "07 a 19 hrs"},

    {"title": "Starbucks",
    "category": "Cafetería",
    "email": "alejandro@bigninjas.com",
    "phone": "011 4957-0683",
    "fullAddress": "San Martín 150,Buenos Aires",
    "latitude": -34.606277,
    "longitude": -58.373772,
    "openingdays": "Lunes a Domingo",
    "openingHours": "07 a 20 hrs"},
  ]
